City_ID,City,Lat,Lng,Max Temp,Humidity,Cloudiness,Wind Speed,Country,Date
0,grytviken,-54.2811,-36.5092,273.95,84,95,2.38,GS,1700782072
1,port-aux-francais,-49.35,70.2167,280.34,96,100,19.35,TF,1700782054
2,batang,-6.4846,110.7083,300.48,78,100,1.54,ID,1700781682
3,kiruna,67.8557,20.2251,259.66,92,100,1.03,SE,1700782458
4,adamstown,-25.066,-130.1015,294.97,75,100,6.26,PN,1700782087
5,vilyuchinsk,52.9306,158.4028,274.3,98,100,3.38,RU,1700782458
6,isafjordur,66.0755,-23.124,269.16,66,91,3.4,IS,1700782135
7,stanley,54.868,-1.6985,279.14,79,0,5.66,GB,1700782460
8,shubarshi,48.5872,57.1869,267.09,94,93,4.0,KZ,1700782460
9,albany,42.6001,-73.9662,280.5,70,74,3.75,US,1700781932
10,ranchettes,41.2186,-104.7903,270.06,88,100,7.2,US,1700782461
11,bredasdorp,-34.5322,20.0403,289.79,76,99,0.71,ZA,1700782150
12,invercargill,-46.4,168.35,284.83,59,78,4.47,NZ,1700782274
13,cloverdale,38.8055,-123.0172,295.1,46,1,1.79,US,1700782339
14,hermanus,-34.4187,19.2345,289.47,84,99,1.16,ZA,1700782463
15,portland,45.5234,-122.6762,285.34,72,20,4.12,US,1700781835
16,papao,-17.75,-149.55,301.97,86,52,9.58,PF,1700782464
17,edinburgh of the seven seas,-37.0676,-12.3116,286.8,80,87,9.57,SH,1700782062
18,macau,22.2006,113.5461,296.0,78,20,5.66,MO,1700782210
19,tanjungtiram,4.0613,98.3699,297.16,95,100,1.71,ID,1700782465
20,shubarkuduk,49.1447,56.4872,267.19,83,90,4.18,KZ,1700782466
21,ushuaia,-54.8,-68.3,282.96,66,40,13.38,AR,1700782128
22,muli,2.9167,73.5667,300.97,74,70,4.52,MV,1700782467
23,nikolayevsk-on-amure,53.1406,140.73,257.83,82,100,6.42,RU,1700782467
24,bloemfontein,-29.1211,26.214,297.86,41,91,8.75,ZA,1700782468
25,villa de costa rica,24.5875,-107.3875,302.16,56,4,2.82,MX,1700782468
26,kongsvinger,60.1905,11.9977,273.52,55,79,2.85,NO,1700782469
27,bay roberts,47.5999,-53.2648,275.0,87,87,2.68,CA,1700782469
28,tweed heads,-28.1817,153.547,298.81,60,40,5.66,AU,1700782410
29,mount gambier,-37.8333,140.7667,288.7,98,100,2.87,AU,1700782251
30,standerton,-26.9337,29.2415,292.92,50,36,1.71,ZA,1700782471
31,waitangi,-43.9535,-176.5597,290.27,90,100,2.68,NZ,1700782095
32,kani keli,-12.9536,45.1033,298.74,71,82,2.74,YT,1700782472
33,puerto natales,-51.7236,-72.4875,283.14,67,94,5.51,CL,1700782104
34,port mathurin,-19.6833,63.4167,297.46,74,92,10.73,MU,1700782249
35,sur,22.5667,59.5289,297.73,60,0,1.98,OM,1700782473
36,usogorsk,63.4106,48.6872,261.3,94,100,1.93,RU,1700782348
37,hamilton,39.1834,-84.5333,283.13,66,0,2.57,US,1700782080
38,nan,18.8333,100.6667,290.16,94,20,0.0,TH,1700782474
39,petrovskaya,45.4314,37.955,281.35,78,100,7.69,RU,1700782475
40,whitehorse,60.7161,-135.0538,276.58,81,75,8.23,CA,1700782475
41,saipan,15.1355,145.701,300.54,89,100,8.23,MP,1700782233
42,geraldton,-28.7667,114.6,295.38,68,100,1.54,AU,1700782070
43,puerto san jose,13.9256,-90.8244,300.08,81,23,3.32,GT,1700782477
44,hadibu,12.65,54.0333,298.72,72,85,3.8,YE,1700782152
45,kayangel,8.0823,134.7173,301.89,77,46,7.78,PW,1700782478
46,okha,53.5739,142.9478,264.46,84,100,9.06,RU,1700782478
47,petropavlovsk-kamchatsky,53.0452,158.6483,273.48,73,100,10.28,RU,1700781854
48,georgetown,5.4112,100.3354,300.11,89,20,1.03,MY,1700782087
49,thompson,55.7435,-97.8558,264.24,45,20,8.75,CA,1700782480
50,kenai,60.5544,-151.2583,277.2,96,100,4.12,US,1700782349
51,aasiaat,68.7098,-52.8699,266.52,82,84,1.35,GL,1700782146
52,fauske,67.2588,15.3918,276.18,94,100,2.87,NO,1700782481
53,prince george,53.9166,-122.753,273.84,74,40,4.63,CA,1700782434
54,puerto ayora,-0.7393,-90.3518,297.9,94,50,4.02,EC,1700782165
55,port shepstone,-30.7414,30.455,295.45,94,96,1.04,ZA,1700782482
56,kapa'a,22.0752,-159.319,300.33,82,75,5.14,US,1700781939
57,bowen,-20.0167,148.2333,299.76,69,96,5.65,AU,1700782483
58,awjilah,29.1081,21.2869,290.36,32,0,4.35,LY,1700782484
59,mutare,-18.9707,32.6709,290.64,81,0,2.35,ZW,1700782484
60,chonchi,-42.6128,-73.8092,287.1,67,2,2.01,CL,1700782180
61,blackmans bay,-43.0167,147.3167,294.55,61,3,0.89,AU,1700782070
62,island harbour,50.724,-1.2758,285.89,90,78,2.68,GB,1700782485
63,qaqortoq,60.7167,-46.0333,268.98,93,100,2.64,GL,1700782189
64,bilibino,68.0546,166.4372,257.33,96,100,0.18,RU,1700782083
65,broome,42.2506,-75.833,279.76,78,100,4.63,US,1700782487
66,isla vista,34.4133,-119.861,295.94,55,0,2.57,US,1700782488
67,lensk,60.7253,114.9278,253.51,94,100,4.03,RU,1700782258
68,crane,31.3974,-102.3501,288.36,30,18,4.43,US,1700782489
69,queenstown,-31.8976,26.8753,290.69,85,64,0.27,ZA,1700782213
70,constantia,44.1833,28.65,279.65,85,83,8.16,RO,1700782490
71,gadzhiyevo,69.2551,33.3362,261.93,86,38,6.7,RU,1700782231
72,nema,57.5067,50.5011,257.92,98,98,2.67,RU,1700782385
73,flying fish cove,-10.4217,105.6791,298.97,83,75,4.12,CX,1700782227
74,mitchell,43.7094,-98.0298,270.14,43,0,6.69,US,1700782268
75,ribeira grande,38.5167,-28.7,292.47,95,100,4.92,PT,1700782073
76,port lincoln,-34.7333,135.8667,290.7,74,100,4.11,AU,1700782382
77,tiksi,71.6872,128.8694,240.53,100,67,1.43,RU,1700782164
78,lisala,2.15,21.5167,293.98,100,100,0.51,CD,1700782493
79,tiassale,5.8983,-4.8283,297.32,97,67,1.13,CI,1700782494
80,zwolle,52.5126,6.0936,281.45,45,93,1.79,NL,1700782494
81,ilulissat,69.2167,-51.1,269.16,63,75,1.54,GL,1700782495
82,badger,64.8,-147.5333,268.7,90,100,0.0,US,1700782108
83,caleta de carquin,-11.0925,-77.6267,293.21,81,33,5.15,PE,1700782496
84,alaghsas,17.0187,8.0168,297.87,15,100,3.39,NE,1700782368
85,san pedro pochutla,15.7333,-96.4667,301.99,85,80,1.65,MX,1700782496
86,newman,37.3138,-121.0208,293.28,44,0,7.15,US,1700782187
87,hithadhoo,-0.6,73.0833,300.3,77,100,3.71,MV,1700782315
88,cao bang,22.6667,106.25,293.24,75,99,0.79,VN,1700782498
89,nar'yan-mar,67.6713,53.087,258.21,98,65,0.89,RU,1700782327
90,pizarro,4.9533,-77.366,299.21,88,50,2.47,CO,1700782499
91,la passe,45.5549,-0.8967,284.81,92,100,2.95,FR,1700782373
92,tura,25.5198,90.2201,290.02,92,0,1.46,IN,1700782500
93,turpan,42.9333,89.1667,275.83,49,100,0.28,CN,1700782500
94,manokwari,-0.8667,134.0833,301.35,73,95,1.78,ID,1700782501
95,labrador city,52.9463,-66.9114,268.1,86,100,2.06,CA,1700782501
96,kourou,5.1552,-52.6478,300.18,88,59,3.16,GF,1700782206
97,altai,46.3722,96.2583,262.65,54,83,1.58,MN,1700782502
98,kodiak,57.79,-152.4072,279.88,93,100,4.63,US,1700781916
99,san antonio de pale,-1.4014,5.6325,299.24,77,100,3.57,GQ,1700782309
100,rikaze,29.25,88.8833,267.62,61,0,1.03,CN,1700782504
101,port elizabeth,-33.918,25.5701,292.77,93,0,1.54,ZA,1700782504
102,margaret river,-33.95,115.0667,295.11,43,2,2.72,AU,1700782059
103,dawei,14.0833,98.2,295.52,81,75,2.66,MM,1700782506
104,mount pearl,47.5166,-52.7813,274.34,89,75,7.2,CA,1700782507
105,puerto colombia,10.9878,-74.9547,303.2,79,94,7.22,CO,1700782507
106,nuuk,64.1835,-51.7216,274.49,60,100,5.66,GL,1700781920
107,chiang klang,19.2938,100.8617,293.72,91,40,0.59,TH,1700782508
108,los alamos,35.8881,-106.307,280.74,53,0,5.66,US,1700782508
109,hawaiian paradise park,19.5933,-154.9731,300.88,77,0,4.63,US,1700782142
110,nova vicosa,-17.8919,-39.3719,298.68,80,1,7.26,BR,1700782509
111,timimoun,29.2639,0.231,285.36,40,0,2.06,DZ,1700782510
112,raja,8.4596,25.678,299.21,38,88,1.04,SS,1700782183
113,kingsville,27.5159,-97.8561,291.25,68,20,4.12,US,1700782511
114,mirialguda,16.8667,79.5833,296.11,94,99,2.03,IN,1700782511
115,codrington,-38.2667,141.9667,290.96,82,100,1.55,AU,1700782512
116,paita,-5.0892,-81.1144,294.61,80,5,7.37,PE,1700781924
117,tarawa,1.419,172.984,304.2,70,20,2.57,KI,1700782513
118,happy valley-goose bay,53.3168,-60.3315,274.32,80,100,1.54,CA,1700782513
119,lompoc,34.6391,-120.4579,292.6,82,100,7.72,US,1700782290
120,conception bay south,47.4999,-52.9981,274.67,89,87,7.19,CA,1700782514
121,oriximina,-1.7656,-55.8661,297.42,96,96,2.93,BR,1700782515
122,madalena,41.2162,-8.3345,283.87,63,5,1.62,PT,1700782515
123,kavaratti,10.5669,72.642,300.98,75,49,2.41,IN,1700782238
124,itaituba,-4.2761,-55.9836,296.55,99,100,0.72,BR,1700782516
125,shalqar,47.8333,59.6,269.94,93,100,6.78,KZ,1700782517
126,lorengau,-2.0226,147.2712,301.3,79,98,2.74,PG,1700782169
127,chusovoy,58.3013,57.8131,261.92,93,100,3.2,RU,1700782518
128,beidao,34.5686,105.8933,280.2,64,80,1.62,CN,1700782518
129,petukhovo,55.0692,67.9019,267.65,86,100,6.68,RU,1700782519
130,puerto baquerizo moreno,-0.9,-89.6,297.53,80,53,5.96,EC,1700782520
131,jamestown,42.097,-79.2353,279.92,87,100,6.17,US,1700782333
132,acapulco de juarez,16.8634,-99.8901,302.05,54,100,2.06,MX,1700782521
133,san patricio,28.017,-97.5169,288.07,69,83,3.64,US,1700782521
134,la ronge,55.1001,-105.2842,262.29,48,0,2.57,CA,1700782522
135,eraan,9.0629,117.7016,301.5,76,98,0.76,PH,1700782522
136,udachny,66.4167,112.4,248.2,100,100,1.62,RU,1700782354
137,kingston,17.997,-76.7936,301.68,85,75,4.12,JM,1700782258
138,ust-nera,64.5667,143.2,249.47,99,100,2.08,RU,1700782153
139,kill devil hills,36.0307,-75.676,284.81,77,0,0.0,US,1700782106
140,wailua homesteads,22.0669,-159.378,299.59,82,75,5.14,US,1700782077
141,islamkot,24.6997,70.177,293.0,43,0,1.66,PK,1700782525
142,krasnyy yar,46.5331,48.3456,269.11,79,100,4.68,RU,1700782525
143,karliova,39.2983,41.0142,271.63,89,68,1.5,TR,1700782526
144,plettenberg bay,-34.0527,23.3716,290.28,94,80,1.61,ZA,1700782526
145,khandyga,62.6667,135.6,243.02,99,100,0.26,RU,1700782237
146,klyuchi,52.2667,79.1667,273.34,79,67,5.99,RU,1700782527
147,argo,37.6333,22.7333,286.92,80,0,1.26,GR,1700782528
148,highworth,51.6305,-1.711,284.64,89,75,4.12,GB,1700782528
149,yuzhno-kurilsk,44.0306,145.8556,282.8,65,69,6.84,RU,1700782529
150,makuyuni,-4.7333,38.1,295.12,95,99,2.37,TZ,1700782529
151,mahibadhoo,3.7833,72.9667,299.16,82,99,4.47,MV,1700782530
152,west island,-12.1568,96.8225,299.14,83,100,4.12,CC,1700782181
153,avarua,-21.2078,-159.775,301.18,69,40,7.72,CK,1700782177
154,ormara,25.2088,64.6357,297.16,26,2,4.94,PK,1700782532
155,pastos bons,-6.6017,-44.0767,298.46,65,64,0.82,BR,1700782532
156,vallenar,-28.5708,-70.7581,294.78,42,1,2.07,CL,1700782533
157,kailua-kona,19.6406,-155.9956,300.65,83,40,3.09,US,1700781952
158,katabu,-4.9333,122.5167,303.3,64,100,1.65,ID,1700782534
159,allapalli,19.4167,80.0667,295.12,79,67,0.48,IN,1700782534
160,bethel,41.3712,-73.414,281.2,68,0,2.57,US,1700782129
161,iqaluit,63.7506,-68.5145,268.0,63,75,6.17,CA,1700782143
162,zhob,31.3411,69.4481,283.47,55,64,1.68,PK,1700782535
163,mugia,43.1041,-9.2179,281.99,74,83,3.26,ES,1700782536
164,cam ranh,11.9214,109.1591,300.13,69,40,6.69,VN,1700782536
165,galle,6.0367,80.217,297.74,88,97,1.97,LK,1700782536
166,midvagur,62.0511,-7.1939,274.61,75,100,15.43,FO,1700782263
167,kone,-21.0595,164.8658,298.95,60,76,4.31,NC,1700782537
168,alice springs,-23.7,133.8833,301.9,21,69,6.69,AU,1700782538
169,oamaru,-45.0784,170.9801,283.92,66,77,0.45,NZ,1700782198
170,villamontes,-21.25,-63.5,294.38,74,100,3.13,BO,1700782539
171,haiku-pauwela,20.9219,-156.3051,303.16,55,20,7.2,US,1700782269
172,yellowknife,62.456,-114.3525,267.82,100,100,6.71,CA,1700782168
173,baiti,13.745,-14.7482,299.87,13,99,3.54,SN,1700782540
174,santa rosalia,27.3167,-112.2833,296.02,44,64,1.33,MX,1700782540
175,kovalam,8.3667,76.9967,300.2,83,40,0.0,IN,1700782541
176,praia da vitoria,38.7333,-27.0667,292.46,94,40,6.7,PT,1700782541
177,hong kong,22.2855,114.1577,296.11,75,20,3.58,HK,1700782368
178,saint-denis,48.9167,2.3333,284.86,87,100,5.14,FR,1700782542
179,tolanaro,-25.0319,46.9987,297.19,83,20,6.17,MG,1700782299
180,kurumkan,54.3,110.3,250.51,89,35,1.46,RU,1700782543
181,olonkinbyen,70.9221,-8.7187,269.22,90,99,14.54,SJ,1700782134
182,atafu village,-8.5421,-172.5159,302.0,71,100,2.53,TK,1700782544
183,buta,2.7858,24.73,294.4,99,58,0.02,CD,1700782369
184,niquero,20.0431,-77.5828,298.82,76,20,2.6,CU,1700782545
185,fisterra,42.9049,-9.2629,281.9,68,85,2.17,ES,1700782545
186,songea,-10.6833,35.65,291.88,93,100,1.7,TZ,1700782500
187,penalva,-3.2942,-45.1736,299.86,65,43,2.2,BR,1700782546
188,mirnyy,62.5353,113.9611,248.04,97,95,2.66,RU,1700782546
189,sinabang,2.4803,96.3801,298.76,84,100,2.93,ID,1700782547
190,akjoujt,19.6969,-14.4164,296.48,21,19,6.62,MR,1700782547
191,visby,57.6409,18.296,277.27,70,75,9.26,SE,1700782548
192,pokhara,28.2333,83.9833,287.79,38,0,2.68,NP,1700782484
193,kununurra,-15.7667,128.7333,301.14,74,98,2.06,AU,1700782549
194,ulsteinvik,62.3432,5.8487,277.22,74,100,8.49,NO,1700782549
195,st. john's,47.5649,-52.7093,274.8,89,75,7.2,CA,1700782550
196,adigrat,14.277,39.462,285.51,70,8,1.87,ET,1700782550
197,n'dalatando,-9.2978,14.9116,291.77,98,100,0.95,AO,1700782550
198,bandon,51.7469,-8.7425,285.92,84,88,3.56,IE,1700782551
199,vorgashor,67.5833,63.95,260.01,86,32,5.2,RU,1700782551
200,cheltenham,51.9,-2.0833,285.12,80,87,0.89,GB,1700782552
201,kerikeri,-35.2268,173.9474,293.2,53,49,4.82,NZ,1700782552
202,papatowai,-46.5619,169.4708,283.32,50,98,5.56,NZ,1700782553
203,ardabil,38.2498,48.2933,274.9,93,20,2.06,IR,1700782553
204,lamu,-2.2717,40.902,297.47,91,94,1.75,KE,1700782553
205,utrik,11.2278,169.8474,300.76,68,3,8.92,MH,1700782554
206,revda,56.801,59.9303,259.58,90,100,4.22,RU,1700782291
207,mil'kovo,55.6078,37.7956,267.83,94,100,4.49,RU,1700782555
208,camabatela,-8.1881,15.375,287.96,98,100,1.32,AO,1700782555
209,malanje,-9.5402,16.341,289.17,98,98,1.1,AO,1700782556
210,general acha,-37.377,-64.6043,293.04,18,0,4.0,AR,1700782556
211,naze,28.3667,129.4833,292.66,64,5,9.12,JP,1700782556
212,vila franca do campo,37.7167,-25.4333,292.38,99,97,2.59,PT,1700782294
213,qui nhon,13.7667,109.2333,296.91,82,100,8.32,VN,1700782557
214,oak grove,45.4168,-122.6401,284.36,72,17,2.68,US,1700782558
215,sirjan,29.452,55.6814,284.12,48,87,3.64,IR,1700782558
216,malax,62.9423,21.5731,273.12,100,100,4.63,FI,1700782559
217,holualoa,19.6228,-155.9522,298.58,84,40,3.09,US,1700782559
218,tsiombe,-25.3,45.4833,295.44,82,0,2.94,MG,1700782559
219,carnarvon,-24.8667,113.6333,296.35,71,0,4.88,AU,1700782209
220,mikhaylovskoye,51.8239,79.7172,274.48,81,63,5.73,RU,1700782561
221,undurkhaan,47.3194,110.6556,244.1,94,5,1.41,MN,1700782561
222,concepcion,-36.827,-73.0498,291.04,68,0,7.72,CL,1700782562
223,chibougamau,49.9168,-74.3659,263.94,79,100,4.12,CA,1700782562
224,kalabo,-14.97,22.6814,293.02,87,100,2.61,ZM,1700782563
225,selfoss,63.9331,-20.9971,270.41,63,82,3.84,IS,1700782563
226,ola,59.5833,151.2833,249.34,82,78,7.62,RU,1700782270
227,weyburn,49.6668,-103.8511,261.27,67,3,2.57,CA,1700782337
228,mundgod,14.9667,75.0333,294.93,90,100,3.03,IN,1700782565
229,rosarito,32.3333,-117.0333,291.62,71,18,3.15,MX,1700782393
230,hawick,55.4227,-2.7867,279.33,72,43,6.55,GB,1700782566
231,paphos,34.7667,32.4167,287.03,72,0,4.12,CY,1700782566
232,howard springs,-12.497,131.047,298.14,97,100,1.45,AU,1700782566
233,guerrero negro,27.9769,-114.0611,294.13,49,87,5.29,MX,1700782329
234,tralee,52.2704,-9.7026,285.08,94,100,3.59,IE,1700782567
235,glace bay,46.1969,-59.957,285.25,97,100,5.14,CA,1700782386
236,mantua,45.1667,10.7833,278.74,88,7,1.34,IT,1700782568
237,sault ste. marie,46.5168,-84.3333,270.31,54,100,9.77,CA,1700782520
238,punta arenas,-53.15,-70.9167,285.21,62,40,14.92,CL,1700782242
239,ciudad lazaro cardenas,17.9583,-102.2,297.98,81,100,0.93,MX,1700782570
240,dudinka,69.4058,86.1778,244.15,100,51,2.03,RU,1700782196
241,port-gentil,-0.7193,8.7815,300.13,94,75,1.54,GA,1700782570
242,i-n-salah,27.1935,2.4607,286.9,38,0,3.31,DZ,1700782571
243,talnakh,69.4865,88.3972,247.02,95,53,2.17,RU,1700782571
244,neryungri,56.6709,124.6491,249.36,91,100,5.45,RU,1700782572
245,sovetskiy,61.3614,63.5842,268.65,95,100,4.47,RU,1700782573
246,puerto deseado,-47.7503,-65.8938,287.44,46,75,3.81,AR,1700782573
247,hakha,22.65,93.6167,280.88,87,0,1.24,MM,1700782574
248,rundu,-17.9333,19.7667,297.32,52,36,2.3,NA,1700782574
249,aldan,58.6031,125.3894,248.64,97,100,3.15,RU,1700782574
250,sitka,57.0531,-135.33,282.09,93,100,3.09,US,1700782575
251,ainaro,-8.9924,125.5082,301.06,32,64,1.85,TL,1700782576
252,vila velha,-20.3297,-40.2925,300.34,80,0,5.36,BR,1700782576
253,makoua,0.0069,15.6333,294.43,99,100,1.34,CG,1700782577
254,aykhal,66.0,111.5,252.65,99,100,1.82,RU,1700782336
255,tamasi,46.6333,18.2833,274.92,93,8,3.29,HU,1700782577
256,uturoa,-16.7333,-151.4333,299.55,83,78,7.69,PF,1700782578
257,joao pinheiro,-17.7425,-46.1725,297.45,68,52,2.5,BR,1700782578
258,ebon,4.582,168.6964,301.36,78,19,6.17,MH,1700782579
259,akcakoca,41.0866,31.1162,286.69,83,56,3.79,TR,1700782579
260,qulsary,46.9531,54.0198,270.83,80,86,4.99,KZ,1700782580
261,al jumum,21.6169,39.6981,299.62,74,1,0.49,SA,1700782580
262,rio grande,-32.035,-52.0986,292.21,77,0,1.09,BR,1700782581
263,sandnessjoen,66.0217,12.6316,272.27,80,75,1.03,NO,1700782581
264,mandalgovi,45.7625,106.2708,255.88,81,7,1.88,MN,1700782229
265,college,64.8569,-147.8028,267.14,89,75,0.0,US,1700782159
266,olyokminsk,60.3736,120.4264,252.32,91,100,2.81,RU,1700782335
267,farah,32.5,62.5,284.81,25,100,0.45,AF,1700782583
268,luanda,-8.8368,13.2343,297.15,94,75,1.54,AO,1700782584
269,fes,34.0372,-4.9998,280.29,42,0,1.54,MA,1700782503
270,francistown,-21.17,27.5079,299.39,29,4,4.98,BW,1700782585
271,kawalu,-7.3817,108.2082,297.58,89,100,0.68,ID,1700782585
272,alesund,62.4723,6.1549,277.23,72,75,12.35,NO,1700782493
273,novodvinsk,64.4165,40.8122,257.47,93,94,2.93,RU,1700782586
274,hadithah,34.1397,42.3781,287.73,34,0,1.82,IQ,1700782586
275,taro,-8.3862,115.28,297.15,76,100,0.47,ID,1700782587
276,longyearbyen,78.2186,15.6401,270.06,68,20,5.66,SJ,1700782214
277,mayahi,13.9553,7.6712,297.93,18,69,2.78,NE,1700782588
278,floro,61.5996,5.0328,278.69,75,75,15.95,NO,1700782588
279,le port,-20.9373,55.2919,297.53,96,100,6.98,RE,1700782589
280,'alaqahdari dishu,30.4374,63.313,285.79,28,98,2.32,AF,1700782589
281,wangqing,43.3218,129.7634,265.33,55,96,3.45,CN,1700782589
282,arraial do cabo,-22.9661,-42.0278,298.13,88,100,3.09,BR,1700782227
283,goundam,16.4145,-3.6708,296.99,17,84,3.03,ML,1700782591
284,iquique,-20.2208,-70.1431,293.17,79,27,1.2,CL,1700782591
285,margate,51.3813,1.3862,284.75,75,69,7.6,GB,1700782592
286,richmond,37.5538,-77.4603,282.08,76,20,1.54,US,1700782333
287,malabar,-33.9667,151.25,295.77,84,75,1.54,AU,1700782593
288,ville platte,30.688,-92.2715,284.21,74,100,1.48,US,1700782593
289,tazovsky,67.4667,78.7,255.41,89,12,7.68,RU,1700782185
290,sao jose da coroa grande,-8.8978,-35.1478,297.62,74,6,1.97,BR,1700782594
291,lihue,21.9789,-159.3672,299.92,77,75,5.14,US,1700782594
292,mormugao,15.4,73.8,298.74,94,20,1.03,IN,1700782595
293,taylorville,39.5489,-89.2945,280.81,69,20,3.88,US,1700782595
294,karacoban,39.3492,42.1124,273.7,78,27,0.8,TR,1700782596
295,jayapura,-2.5333,140.7,302.81,64,99,1.5,ID,1700782596
296,sao tome,0.3365,6.7273,299.27,78,100,1.53,ST,1700782596
297,fortuna,40.5982,-124.1573,287.34,75,0,7.2,US,1700782597
298,hamina,60.5697,27.1979,271.75,91,95,4.53,FI,1700782597
299,remire-montjoly,4.9167,-52.2667,300.17,89,0,0.0,GF,1700782376
300,thabazimbi,-24.5917,27.4116,298.26,30,15,2.45,ZA,1700782598
301,saint-philippe,-21.3585,55.7679,295.92,87,92,5.81,RE,1700782156
302,sicuani,-14.2694,-71.2261,284.69,75,95,1.44,PE,1700782599
303,bubaque,11.2833,-15.8333,301.4,66,34,4.4,GW,1700782599
304,harstad,68.799,16.5293,274.05,97,100,3.58,NO,1700782600
305,akureyri,65.6835,-18.0878,264.11,86,0,3.09,IS,1700782600
306,olaine,56.7853,23.9381,275.33,93,75,2.57,LV,1700782601
307,sargatskoye,55.6101,73.4972,269.37,93,99,4.97,RU,1700782601
308,luderitz,-26.6481,15.1594,292.63,76,33,8.21,NA,1700782312
309,mata-utu,-13.2816,-176.1745,301.55,65,15,3.82,WF,1700782602
310,kapuskasing,49.4169,-82.4331,260.2,78,20,3.09,CA,1700782602
311,saint-joseph,-21.3667,55.6167,296.74,84,93,6.52,RE,1700782361
312,puerto armuelles,8.2833,-82.8667,301.02,82,98,3.13,PA,1700782603
313,camana,-16.6228,-72.7111,293.72,79,53,2.46,PE,1700782604
314,kiunga,-6.1219,141.2906,303.34,69,100,0.79,PG,1700782604
315,ancud,-41.8697,-73.8203,286.13,73,7,1.59,CL,1700782126
316,dickinson,29.4608,-95.0513,286.55,72,100,1.54,US,1700782605
317,timbuktu,16.7735,-3.0074,296.05,15,89,3.85,ML,1700782605
318,ciudad acuna,29.3232,-100.9522,293.31,36,0,5.66,MX,1700782606
319,laguna,38.421,-121.4238,294.32,35,0,6.17,US,1700782606
320,buritama,-21.0661,-50.1472,295.21,95,99,2.33,BR,1700782607
321,malvan,16.0667,73.4667,298.33,70,87,1.56,IN,1700782607
322,leninogorsk,54.6026,52.4609,258.06,100,100,3.19,RU,1700782608
323,keflavik,64.0049,-22.5624,272.39,64,0,2.06,IS,1700782478
324,buka,40.8108,69.1986,280.84,46,6,0.73,UZ,1700782608
325,xilin hot,43.9667,116.0333,251.75,93,5,2.56,CN,1700782215
326,lesnoy,57.6198,63.0784,264.13,87,100,4.32,RU,1700782609
327,puerto leguizamo,-0.1934,-74.7819,299.38,75,48,1.17,CO,1700782610
328,lovisa,60.4566,26.2251,271.64,99,100,1.46,FI,1700782610
329,south venice,27.0531,-82.4243,294.17,63,0,2.24,US,1700782611
330,alto parana,-23.1289,-52.3189,295.43,93,87,2.0,BR,1700782611
331,altamont,42.2068,-121.7372,280.04,58,0,6.17,US,1700782611
332,tazacorte,28.629,-17.9293,294.69,62,100,3.09,ES,1700782612
333,inarajan village,13.2736,144.7484,302.69,87,38,6.08,GU,1700782613
334,arhribs,36.7936,4.3116,287.39,63,96,9.38,DZ,1700782613
335,faro,37.0194,-7.9322,286.46,67,0,4.12,PT,1700782348
336,sutysky,49.0425,28.4173,277.37,61,100,9.04,UA,1700782614
337,cardigan,52.0847,-4.6591,285.11,80,100,9.18,GB,1700782614
338,namtsy,62.7161,129.6658,244.46,95,100,2.65,RU,1700782615
339,savanna-la-mar,18.219,-78.1332,301.12,79,47,0.31,JM,1700782615
340,mount isa,-20.7333,139.5,301.02,54,40,3.09,AU,1700782616
341,lebedyn,50.5852,34.4849,274.27,97,100,8.67,UA,1700782616
342,fort mcmurray,56.7268,-111.381,265.92,86,0,1.54,CA,1700782617
343,gutao,37.2025,112.1781,269.28,17,0,1.53,CN,1700782617
344,san andres,12.5847,-81.7006,301.16,83,20,6.69,CO,1700782208
345,cooper's town,26.8667,-77.5167,296.74,81,100,2.55,BS,1700782618
346,aden,12.7794,45.0367,299.81,72,37,4.85,YE,1700782618
347,rauma,61.1272,21.5113,271.17,88,99,4.13,FI,1700782619
348,sinan,34.8262,126.1086,279.21,60,100,14.24,KR,1700782619
349,potosi,-19.5836,-65.7531,281.18,81,100,2.27,BO,1700782470
350,juneau,58.3019,-134.4197,280.15,97,100,5.66,US,1700782398
351,douglas,41.3,-96.167,276.05,30,0,7.72,US,1700782621
352,al bukayriyah,26.1442,43.6593,290.02,64,81,5.18,SA,1700782621
353,taiyuan,37.8694,112.5603,265.07,45,0,1.0,CN,1700782621
354,san jose del cabo,23.0589,-109.6977,300.75,61,40,5.14,MX,1700782565
355,ujae,8.9322,165.7642,300.81,80,75,8.87,MH,1700782622
356,nantucket,41.2835,-70.0995,281.23,76,0,2.57,US,1700782623
357,chokwe,-24.5333,32.9833,299.11,50,0,3.1,MZ,1700782623
358,tambura,5.6,27.4667,295.37,87,99,1.14,SS,1700782624
359,hafar al-batin,28.4328,45.9708,285.47,87,75,3.09,SA,1700782624
360,kosiv,48.3107,25.0958,277.34,57,43,10.41,UA,1700782624
361,boa vista,2.8197,-60.6733,303.14,58,20,3.09,BR,1700782625
362,puerto lempira,15.2667,-83.7667,301.23,78,20,3.6,HN,1700782540
363,axim,4.8699,-2.2405,298.68,92,95,1.75,GH,1700782626
364,rio preto da eva,-2.6994,-59.6997,297.07,97,100,1.76,BR,1700782626
365,smithers,54.7804,-127.1743,274.33,80,75,0.0,CA,1700782508
366,lebu,-37.6167,-73.65,286.08,81,0,9.29,CL,1700782186
367,iskateley,67.6803,53.1512,258.16,98,85,0.89,RU,1700782628
368,araxa,-19.5933,-46.9406,299.13,69,0,2.57,BR,1700782628
369,pandan,14.0453,124.1694,301.06,83,89,8.45,PH,1700782629
370,miri,4.4148,114.0089,297.23,100,40,1.54,MY,1700782629
371,laminusa,5.5549,120.9136,301.43,78,82,2.99,PH,1700782630
372,selebi-phikwe,-21.979,27.8498,298.14,30,2,2.96,BW,1700782630
373,chui,-33.6971,-53.4616,288.11,89,25,2.11,UY,1700782631
374,tucuma,-0.1833,-50.05,300.36,76,45,4.39,BR,1700782507
375,chernyshevskiy,63.0128,112.4714,240.43,100,100,1.01,RU,1700782632
376,villa gesell,-37.2639,-56.973,287.62,63,1,9.72,AR,1700782633
377,tomohon,1.3346,124.8392,293.67,79,98,1.16,ID,1700782634
378,touros,-5.1989,-35.4608,299.46,75,3,6.71,BR,1700782634
379,robertsport,6.7533,-11.3686,300.43,82,8,3.16,LR,1700782634
380,east london,-33.0153,27.9116,293.03,87,11,4.13,ZA,1700781920
381,susuman,62.7833,148.1667,242.86,100,99,1.36,RU,1700782635
382,boryeong,36.3493,126.5977,276.13,58,95,8.91,KR,1700782636
383,westport,41.1415,-73.3579,282.14,66,0,1.79,US,1700782404
384,cabedelo,-6.9811,-34.8339,300.52,75,2,3.91,BR,1700782637
385,bairnsdale,-37.8333,147.6167,295.4,65,100,2.24,AU,1700782637
386,bentota,6.4254,79.9948,297.76,89,82,1.8,LK,1700782638
387,entebbe,0.0644,32.4469,295.33,88,20,0.0,UG,1700782638
388,aljezur,37.3191,-8.8033,289.12,57,18,2.4,PT,1700782639
389,amga,60.8953,131.9608,246.39,96,100,1.74,RU,1700782639
390,kosh-agach,50.0,88.6667,264.43,88,100,0.45,RU,1700782640
391,nortelandia,-14.4547,-56.8028,300.34,67,94,1.41,BR,1700782640
392,nishinoomote,30.7333,131.0,290.46,77,75,9.26,JP,1700782641
393,minas de marcona,-15.2119,-75.1103,293.63,59,37,3.07,PE,1700782641
394,callao,-12.0667,-77.15,294.31,73,20,8.75,PE,1700782641
395,benjamin aceval,-24.9667,-57.5667,298.48,94,100,4.8,PY,1700782642
396,urengoy,65.9667,78.3667,258.53,83,86,7.97,RU,1700782642
397,snina,48.9886,22.151,276.68,85,98,3.4,SK,1700782643
398,pimentel,-6.8367,-79.9342,295.31,78,75,8.23,PE,1700782643
399,afaahiti,-17.75,-149.2833,301.08,86,78,8.24,PF,1700782644
400,warrnambool,-38.3833,142.4833,295.57,56,100,2.97,AU,1700782645
401,nova sintra,14.8667,-24.7167,297.09,72,0,7.25,CV,1700782645
402,zaragoza,41.6561,-0.8773,282.6,58,0,9.77,ES,1700782510
403,batticaloa,7.7102,81.6924,299.61,78,79,2.48,LK,1700782646
404,izhmorskiy,56.194,86.6414,266.43,95,100,2.89,RU,1700782647
405,kizel,59.0471,57.6477,261.61,81,100,0.89,RU,1700782648
406,cabo san lucas,22.8909,-109.9124,300.76,67,20,3.09,MX,1700782475
407,padang,-0.9492,100.3543,297.18,89,100,1.64,ID,1700782648
408,magistral'nyy,56.1725,107.4458,251.78,97,57,0.89,RU,1700782649
409,ibadan,7.3878,3.8964,296.53,92,88,1.23,NG,1700782649
410,mabaruma,8.2,-59.7833,298.35,88,26,2.12,GY,1700782650
411,paragominas,-2.9667,-47.4833,297.85,81,98,0.26,BR,1700782559
412,kerch,45.3583,36.4758,280.68,79,100,7.15,UA,1700782651
413,san rafael,-34.6177,-68.3301,295.59,23,11,3.63,AR,1700782652
414,igarka,67.4667,86.5833,242.37,99,49,2.08,RU,1700782372
415,chos malal,-37.3781,-70.2709,295.78,20,0,4.55,AR,1700782652
416,mamuju,-2.6748,118.8885,300.64,81,95,1.1,ID,1700782653
417,chanute,37.6792,-95.4572,286.97,44,0,4.63,US,1700782359
418,vorkuta,67.5,64.0,259.98,87,26,4.43,RU,1700782094
419,antalaha,-14.9003,50.2788,296.45,80,100,3.7,MG,1700782654
420,vernon,50.2581,-119.2691,278.35,66,66,1.16,CA,1700782655
421,broken hill,-31.95,141.4333,297.79,51,0,3.24,AU,1700782616
422,baley,51.6,116.6333,246.05,98,9,1.92,RU,1700782655
423,gabu,12.2833,-14.2167,295.45,27,79,1.76,GW,1700782656
424,homer,59.6425,-151.5483,282.09,76,100,1.54,US,1700782523
425,new norfolk,-42.7826,147.0587,296.32,43,11,1.66,AU,1700782657
426,ceeldheer,3.8488,47.1806,299.21,83,100,3.63,SO,1700782657
427,gao,16.6362,1.637,297.12,14,100,3.99,ML,1700782658
428,ambon,-3.6954,128.1814,301.23,83,20,1.54,ID,1700782591
429,curvelo,-18.7564,-44.4308,299.95,44,63,1.25,BR,1700782482
430,shimoda,34.6667,138.95,293.35,63,0,12.12,JP,1700782659
431,dazhou,31.2159,107.5009,289.1,81,71,0.86,CN,1700782660
432,carutapera,-1.195,-46.02,299.03,77,68,3.28,BR,1700782660
433,sal rei,16.1833,-22.9167,299.24,74,0,8.16,CV,1700782661
434,rovaniemi,66.5,25.7167,265.82,93,40,5.14,FI,1700782661
435,pangody,65.85,74.4859,262.29,81,100,10.16,RU,1700782662
436,vorotynets,56.0603,45.8633,262.35,92,100,3.64,RU,1700782662
437,zavodoukovsk,56.5042,66.5515,267.51,84,99,5.75,RU,1700782663
438,carloforte,39.145,8.3058,289.19,77,79,6.66,IT,1700782663
439,puerto rico,-26.796,-55.024,294.22,91,100,1.16,AR,1700782664
440,san fernando,15.0286,120.6898,300.0,79,95,1.32,PH,1700782664
441,pando,-34.7167,-55.95,293.37,82,0,0.0,UY,1700782664
442,alamosa,37.4695,-105.87,280.14,36,0,6.17,US,1700782665
443,cacule,-14.5033,-42.2222,297.54,36,0,0.44,BR,1700782666
444,berber,18.0216,33.983,298.78,30,5,5.44,SD,1700782666
445,port macquarie,-31.4333,152.9167,294.76,78,98,4.7,AU,1700782486
446,port isabel,26.0734,-97.2086,289.84,75,0,2.57,US,1700782667
447,ceelbuur,4.685,46.6176,299.0,79,99,2.92,SO,1700782668
448,lillehammer,61.1146,10.4674,261.62,93,75,1.45,NO,1700782668
449,urucara,-2.5364,-57.76,295.34,98,100,2.14,BR,1700782668
450,weno,7.4515,151.8468,304.12,70,20,3.6,FM,1700782669
451,san francisco de la paz,14.9,-86.2,303.99,97,83,1.61,HN,1700782669
452,port-vila,-17.7338,168.3219,299.93,65,40,4.63,VU,1700782670
453,sadovoye,47.7764,44.5089,270.45,62,100,7.29,RU,1700782670
454,mejit,10.2753,170.8646,300.74,71,6,8.98,MH,1700782671
455,arno,60.1167,18.6333,274.13,76,91,8.47,SE,1700782671
456,sisimiut,66.9395,-53.6735,268.4,67,100,3.53,GL,1700782166
457,taoudenni,22.6783,-3.9836,294.05,22,1,9.12,ML,1700782672
458,abadeh,31.1608,52.6506,281.29,32,97,2.99,IR,1700782673
459,general mosconi,-23.1851,-62.303,293.37,93,100,6.08,AR,1700782673
460,boli,45.7667,130.5167,258.23,74,67,2.66,CN,1700782673
461,maragogi,-9.0122,-35.2225,299.29,68,17,4.01,BR,1700782674
462,gufeng,26.9083,118.9819,284.9,87,18,1.29,CN,1700782674
463,bandarbeyla,9.4942,50.8122,299.12,71,43,6.74,SO,1700782675
464,fale old settlement,-9.3852,-171.2468,301.58,76,77,2.48,TK,1700782675
465,cidreira,-30.1811,-50.2056,288.75,87,22,0.63,BR,1700782628
466,santana,-0.0583,-51.1817,303.25,70,75,4.12,BR,1700782676
467,bardai,11.65,7.2333,296.35,39,94,1.9,NG,1700782677
468,praya,14.9215,-23.5087,299.45,78,0,7.2,CV,1700782677
469,maceio,-9.6658,-35.7353,297.84,88,0,1.54,BR,1700782677
470,sarpol-e zahab,34.4611,45.8626,284.01,42,42,0.32,IR,1700782678
471,darwin,-12.4611,130.8418,298.18,94,100,3.6,AU,1700782678
472,sao gabriel da cachoeira,-0.1303,-67.0892,297.92,88,94,1.23,BR,1700782679
473,melfort,52.8667,-104.6177,262.22,57,2,2.57,CA,1700782679
474,ntoum,0.3833,9.7833,297.02,96,100,0.99,GA,1700782680
475,rusape,-18.5278,32.1284,290.57,70,0,1.58,ZW,1700782680
476,cabinda,-5.55,12.2,298.23,94,100,3.09,AO,1700782681
477,digne-les-bains,44.0833,6.25,278.86,51,6,2.18,FR,1700782681
478,mont-laurier,46.5501,-75.4993,273.94,97,100,2.83,CA,1700782575
479,sabzevar,36.2126,57.6819,280.72,32,41,1.01,IR,1700782683
480,ypsonas,34.6884,32.9574,287.69,63,0,1.54,CY,1700782683
481,qamdo,31.1667,97.2333,264.48,29,0,0.81,CN,1700782684
482,bathsheba,13.2167,-59.5167,300.49,89,40,6.17,BB,1700782684
483,amursk,50.2261,136.8994,257.58,77,99,1.47,RU,1700782685
484,anadyr,64.75,177.4833,269.43,73,75,4.0,RU,1700782685
485,vershino-darasunskiy,52.35,115.5167,247.57,97,9,1.45,RU,1700782685
486,portoferraio,42.8115,10.3146,286.8,66,1,2.57,IT,1700782686
487,tanumah,27.1,44.1333,288.84,61,48,6.2,SA,1700782686
488,sola,-13.8833,167.55,299.02,71,100,7.56,VU,1700782460
489,kuanda,56.3161,116.0806,243.61,92,94,0.8,RU,1700782687
490,timaru,-44.4,171.25,285.41,57,65,8.05,NZ,1700782688
491,es castell,39.8795,4.2854,286.53,67,20,8.23,ES,1700782688
492,bontang,0.1333,117.5,299.62,86,100,1.63,ID,1700782621
493,hancheng,32.5186,112.3522,277.04,30,0,6.54,CN,1700782689
494,nuevo ideal,24.8875,-105.0728,286.9,39,0,4.27,MX,1700782690
495,wichita falls,33.9137,-98.4934,291.22,34,0,3.09,US,1700782478
496,bizerte,37.2744,9.8739,287.15,82,40,2.06,TN,1700782691
497,skidel',53.5904,24.2478,276.79,77,90,9.81,BY,1700782691
498,kilindoni,-7.9139,39.6668,299.62,85,100,4.97,TZ,1700782692
499,mogocha,53.7333,119.7667,246.45,95,23,1.37,RU,1700782692
500,gloversville,43.0528,-74.3438,279.42,88,98,4.92,US,1700782633
501,tangalle,6.024,80.7911,296.27,98,91,1.32,LK,1700782693
502,malango,-2.9627,119.9001,297.29,82,87,0.32,ID,1700782693
503,necochea,-38.5473,-58.7368,282.98,71,0,3.62,AR,1700782694
504,fenyi,27.8112,114.6681,285.37,57,0,1.18,CN,1700782694
505,effium,6.6292,8.0593,297.84,86,99,4.11,NG,1700782695
506,igrim,63.1906,64.4162,266.14,95,100,4.74,RU,1700782695
507,neiafu,-18.65,-173.9833,302.53,65,20,4.63,TO,1700782696
508,noosa heads,-26.3833,153.15,298.21,68,98,5.78,AU,1700782436
509,inhambane,-23.865,35.3833,297.09,92,1,2.19,MZ,1700782697
510,kapoeta,4.7717,33.5903,300.81,49,33,3.67,SS,1700782698
511,bodo,67.28,14.405,276.18,71,75,8.23,NO,1700782254
512,quthing,-30.4,27.7003,295.59,43,68,1.62,LS,1700782698
513,hammerfest,70.6634,23.6821,269.4,74,40,4.63,NO,1700782137
514,crucecita,-28.95,-58.9833,294.99,66,86,4.08,AR,1700782699
515,abqaiq,25.9371,49.6776,292.25,50,66,3.55,SA,1700782700
516,zhosaly,45.4878,64.0781,282.29,47,100,11.86,KZ,1700782700
517,rabaul,-4.1967,152.1721,300.74,76,59,2.6,PG,1700782701
518,childress,34.4264,-100.204,291.29,20,0,4.63,US,1700782701
519,remontnoye,46.5614,43.6501,270.49,89,100,6.5,RU,1700782702
520,fort payne,34.4442,-85.7197,283.1,62,0,0.0,US,1700782702
521,krylovskaya,46.3194,39.9711,274.22,94,100,7.97,RU,1700782703
522,sao vicente,-23.9631,-46.3919,299.25,59,100,1.34,BR,1700782218
523,salalah,17.0151,54.0924,297.2,64,20,1.03,OM,1700782703
524,urangan,-25.3,152.9,299.37,68,100,2.24,AU,1700782704
525,ushtobe,45.2514,77.9838,276.09,75,39,1.29,KZ,1700782704
526,kruisfontein,-34.0033,24.7314,288.45,96,92,1.01,ZA,1700782316
527,pekanbaru,0.5333,101.45,297.33,100,20,0.0,ID,1700782451
528,flin flon,54.7682,-101.865,264.06,48,0,3.09,CA,1700782706
529,balkanabat,39.5108,54.3671,284.24,61,85,4.41,TM,1700782706
530,labytnangi,66.6572,66.4183,263.31,94,100,6.67,RU,1700782706
531,guymon,36.6828,-101.4816,284.15,43,0,9.26,US,1700782707
532,prescott,34.54,-112.4685,284.74,29,0,4.63,US,1700782638
533,san luis de la loma,17.2706,-100.8939,296.48,90,100,2.42,MX,1700782708
534,la puebla de montalban,39.863,-4.3592,282.33,54,38,1.79,ES,1700782708
535,nemuro,43.3236,145.575,281.68,76,77,2.34,JP,1700782448
536,zouerate,22.7187,-12.4521,292.75,37,0,6.43,MR,1700782709
537,namasuba,0.6894,32.4214,290.04,99,86,0.53,UG,1700782710
538,bogo,11.0517,124.0055,301.01,80,41,4.81,PH,1700782710
539,agat village,13.3886,144.6585,302.67,83,75,5.66,GU,1700782711
540,dergachi,51.2328,48.7659,264.86,89,92,5.05,RU,1700782711
541,constitucion,-35.3333,-72.4167,287.82,77,24,5.5,CL,1700782712
542,jinchang,38.4953,102.1739,271.76,48,0,1.87,CN,1700782712
543,kargopol',61.5071,38.9456,262.42,93,100,3.31,RU,1700782713
544,vanino,49.0869,140.2543,263.66,68,98,4.13,RU,1700782714
545,burang,30.25,81.1667,267.22,58,5,1.52,CN,1700782714
546,brookings,44.3114,-96.7984,267.69,48,0,4.12,US,1700782715
547,rio de janeiro,-22.9028,-43.2075,300.34,87,100,3.6,BR,1700782715
548,yamada,39.4667,141.95,287.25,72,70,5.45,JP,1700782715
549,yanam,16.7333,82.2167,297.09,85,97,2.25,IN,1700782716
550,hasaki,35.7333,140.8333,292.2,60,0,10.36,JP,1700782716
551,umm kaddadah,13.6017,26.6876,298.2,20,8,5.31,SD,1700782717
552,prado,-17.3411,-39.2208,298.43,80,3,5.77,BR,1700782717
553,uray,60.1247,64.7758,271.97,94,100,5.81,RU,1700782718
554,bac lieu,9.285,105.7244,297.05,92,100,2.98,VN,1700782718
555,noumea,-22.2763,166.4572,298.14,74,22,9.87,NC,1700782718
556,sao raimundo nonato,-9.0153,-42.6994,302.87,41,65,1.35,BR,1700782719
557,new ulm,44.3125,-94.4605,270.06,43,0,6.17,US,1700782720
558,gaspe,48.8334,-64.4819,277.1,100,100,1.54,CA,1700782720
559,pisco,-13.7,-76.2167,293.18,83,0,8.23,PE,1700782463
560,woods creek,47.8787,-121.8985,281.9,81,3,0.89,US,1700782721
561,cannonvale,-20.2833,148.7,298.81,50,82,3.9,AU,1700782721
562,abalak,58.1286,68.5944,271.68,95,100,3.78,RU,1700782722
563,xuddur,4.1213,43.8894,296.94,78,63,4.37,SO,1700782722
564,prainha,-1.8,-53.48,300.02,65,79,1.55,BR,1700782667
565,nerva,37.6963,-6.5497,282.88,58,4,2.0,ES,1700782723
566,loei,17.4167,101.5,287.8,93,57,0.78,TH,1700782724
567,ta`u,-14.2336,-169.5144,300.5,78,58,3.38,AS,1700782724
568,namibe,-15.1961,12.1522,297.37,88,100,4.5,AO,1700782725
569,guiyang,26.5833,106.7167,282.42,100,75,2.0,CN,1700782725
570,fort st. john,56.2499,-120.8529,271.09,69,20,3.09,CA,1700782505
571,the pas,53.8251,-101.2541,263.16,52,0,3.6,CA,1700782726
572,wynyard,-41.0,145.7167,289.75,72,100,5.43,AU,1700782259
573,kavieng,-2.5744,150.7967,301.98,73,41,3.42,PG,1700782398
574,chinde,26.8418,88.0763,284.5,75,0,1.97,NP,1700782352
575,polyarnyy,69.1989,33.4478,261.97,86,37,6.56,RU,1700782397
576,tolu viejo,9.4508,-75.4386,298.72,88,27,2.21,CO,1700782728
577,alausi,-2.2,-78.8333,283.47,96,100,1.07,EC,1700782728
578,tofol,5.3248,163.0078,303.03,70,75,4.12,FM,1700782729
579,port alfred,-33.5906,26.891,291.58,96,17,0.45,ZA,1700782729
580,kota belud,6.351,116.4305,299.27,88,96,0.68,MY,1700782433
581,aral,40.5156,81.2636,276.83,28,55,3.05,CN,1700782730
582,duba,27.3513,35.6901,296.16,50,31,1.04,SA,1700782477
583,karaton,-6.3424,106.1045,299.24,86,80,0.66,ID,1700782731
